{
"type": "FeatureCollection",
"crs": { "type": "name", "properties": { "name": "urn:ogc:def:crs:OGC:1.3:CRS84" } },
"features": [
{ "type": "Feature", "properties": { "Name": "District HQ", "description": "Please where we met", "timestamp": "2019\/01\/16 07:15:08+00", "tessellate": "-1", "extrude": "0", "visibility": "-1", "com_exlyo_mapmarker_piniconcode": "-1", "com_exlyo_mapmarker_customfields": [ ] }, "geometry": { "type": "Point", "coordinates": [ 106.53727300465107, 21.864991833398737 ] } },
{ "type": "Feature", "properties": { "Name": "House 1", "description": "", "timestamp": "2019\/01\/17 03:28:43+00", "tessellate": "-1", "extrude": "0", "visibility": "-1", "com_exlyo_mapmarker_piniconcode": "-1", "com_exlyo_mapmarker_customfields": [ ] }, "geometry": { "type": "Point", "coordinates": [ 106.509969122707844, 21.795178071761555 ] } },
{ "type": "Feature", "properties": { "Name": "House 3", "description": "", "timestamp": "2019\/01\/17 03:44:53+00", "tessellate": "-1", "extrude": "0", "visibility": "-1", "com_exlyo_mapmarker_piniconcode": "-1", "com_exlyo_mapmarker_customfields": [ ] }, "geometry": { "type": "Point", "coordinates": [ 106.509703584015369, 21.795111140179895 ] } },
{ "type": "Feature", "properties": { "Name": "House 4", "description": "", "timestamp": "2019\/01\/17 03:47:03+00", "tessellate": "-1", "extrude": "0", "visibility": "-1", "com_exlyo_mapmarker_piniconcode": "-1", "com_exlyo_mapmarker_customfields": [ ] }, "geometry": { "type": "Point", "coordinates": [ 106.509628482162952, 21.795182741405629 ] } },
{ "type": "Feature", "properties": { "Name": "House 2", "description": "", "timestamp": "2019\/01\/17 03:53:51+00", "tessellate": "-1", "extrude": "0", "visibility": "-1", "com_exlyo_mapmarker_piniconcode": "-1", "com_exlyo_mapmarker_customfields": [ ] }, "geometry": { "type": "Point", "coordinates": [ 106.509398147463813, 21.795556312437757 ] } },
{ "type": "Feature", "properties": { "Name": "House 5", "description": "House 6", "timestamp": "2019\/01\/17 03:57:48+00", "tessellate": "-1", "extrude": "0", "visibility": "-1", "com_exlyo_mapmarker_piniconcode": "-1", "com_exlyo_mapmarker_customfields": [ ] }, "geometry": { "type": "Point", "coordinates": [ 106.509147360920892, 21.795535454747473 ] } },
{ "type": "Feature", "properties": { "Name": "House 6", "description": "", "timestamp": "2019\/01\/17 04:01:34+00", "tessellate": "-1", "extrude": "0", "visibility": "-1", "com_exlyo_mapmarker_piniconcode": "-1", "com_exlyo_mapmarker_customfields": [ ] }, "geometry": { "type": "Point", "coordinates": [ 106.509685143828378, 21.795678656739071 ] } },
{ "type": "Feature", "properties": { "Name": "House 7", "description": "", "timestamp": "2019\/01\/17 04:08:48+00", "tessellate": "-1", "extrude": "0", "visibility": "-1", "com_exlyo_mapmarker_piniconcode": "-1", "com_exlyo_mapmarker_customfields": [ ] }, "geometry": { "type": "Point", "coordinates": [ 106.510408334434032, 21.795758040390144 ] } },
{ "type": "Feature", "properties": { "Name": "Potential solar site", "description": "The only flat area we could find. It is very big though and is being used for farming", "timestamp": "2019\/01\/17 04:13:07+00", "tessellate": "-1", "extrude": "0", "visibility": "-1", "com_exlyo_mapmarker_piniconcode": "-1", "com_exlyo_mapmarker_customfields": [ ] }, "geometry": { "type": "Point", "coordinates": [ 106.510112285614014, 21.795832754374491 ] } },
{ "type": "Feature", "properties": { "Name": "School", "description": "", "timestamp": "2019\/01\/17 06:02:34+00", "tessellate": "-1", "extrude": "0", "visibility": "-1", "com_exlyo_mapmarker_piniconcode": "-1", "com_exlyo_mapmarker_customfields": [ ] }, "geometry": { "type": "Point", "coordinates": [ 106.533985286951065, 21.784958346825459 ] } }
]
}
